{"alur": {"price": 318000.0, "priceExcludingFees": 318000.0, "textTemplate": 2}, "bedrooms": 1, "city": "Paris 14\u00e8me", "comments": [], "condoAnnualCharges": 1996.0, "condoProperties": 20, "coordinates": {"accuracy": 2, "latitude": 48.82971, "longitude": 2.31944}, "created": "2019-02-09T04:33:00", "dailyLife": {"categories": [{"category": 1, "distance": 3, "latitude": 48.8297004699707, "longitude": 2.3194000720977783, "name": "Cr\u00e8che Municipale Delbet", "type": 43}, {"category": 1, "distance": 72, "latitude": 48.83030319213867, "longitude": 2.3198349475860596, "name": "Institut de formation d'aide-soignant et d'auxiliaire de pu\u00e9riculture", "type": 33}, {"category": 1, "distance": 111, "latitude": 48.83039855957031, "longitude": 2.320551872253418, "name": "Ecole Primaire", "type": 32}, {"category": 1, "distance": 111, "latitude": 48.83039855957031, "longitude": 2.320551872253418, "name": "Ecole Maternelle Hip Te Maindron", "type": 31}, {"category": 2, "distance": 78, "latitude": 48.83040237426758, "longitude": 2.3192272186279297, "name": "BNP Paribas", "type": 23}, {"category": 2, "distance": 99, "latitude": 48.83012771606445, "longitude": 2.3206465244293213, "name": "Picard Maindron", "type": 22}, {"category": 2, "distance": 111, "latitude": 48.8302001953125, "longitude": 2.320770025253296, "name": "Picard Maindron", "type": 21}, {"category": 2, "distance": 124, "latitude": 48.82944869995117, "longitude": 2.3177926540374756, "name": "De Sou ", "type": 19}, {"category": 3, "distance": 76, "latitude": 48.83039855957031, "longitude": 2.3193516731262207, "name": "M\u00e9decin g\u00e9n\u00e9raliste", "type": 40}, {"category": 3, "distance": 123, "latitude": 48.83079147338867, "longitude": 2.3190484046936035, "name": "Ophtalmologiste", "type": 41}, {"category": 3, "distance": 143, "latitude": 48.8306999206543, "longitude": 2.3181800842285156, "name": "Pharmacie", "type": 39}, {"category": 3, "distance": 500, "latitude": 48.828102111816406, "longitude": 2.3130550384521484, "name": "H\u00f4pital Broussais", "type": 38}, {"category": 4, "distance": 637, "latitude": 48.83292007446289, "longitude": 2.3266406059265137, "name": "Mairie du 14e arrondissement de Paris", "type": 47}, {"category": 4, "distance": 751, "latitude": 48.835880279541016, "longitude": 2.3236186504364014, "name": "Commissariat central de police de Paris 14e arrondissement", "type": 49}, {"category": 4, "distance": 3181, "latitude": 48.804229736328125, "longitude": 2.3391335010528564, "name": "Brigade territoriale autonome de gendarmerie de Petit-Bourg", "type": 51}, {"category": 5, "distance": 76, "latitude": 48.83039855957031, "longitude": 2.3193490505218506, "name": "Boulangerie-p\u00e2tisserie", "type": 36}, {"category": 5, "distance": 652, "latitude": 48.831153869628906, "longitude": 2.3108017444610596, "name": "Festival international du Cin\u00e9ma iranien en Exil (11e)", "type": 80}, {"category": 5, "distance": 871, "latitude": 48.83490753173828, "longitude": 2.31054949760437, "name": "Aire Falgui\u00e8re-Compagnie vue sur mer", "type": 37}, {"category": 5, "distance": 897, "latitude": 48.826332092285156, "longitude": 2.33056640625, "name": "Mus\u00e9e L\u00e9nine", "type": 79}, {"category": 6, "distance": 82, "latitude": 48.83000183105469, "longitude": 2.320470094680786, "name": "Association Mieux Vivre Avec Son Corps", "type": 26}, {"category": 6, "distance": 191, "latitude": 48.828330993652344, "longitude": 2.3178699016571045, "name": "College la Bruyere Sainte Isabelle", "type": 72}, {"category": 6, "distance": 194, "latitude": 48.8302001953125, "longitude": 2.316890001296997, "name": "Square Fr\u00e9d\u00e9ric Bazille", "type": 27}, {"category": 6, "distance": 516, "latitude": 48.83393096923828, "longitude": 2.3165199756622314, "name": "Entrepot", "type": 25}, {"category": 7, "distance": 81, "latitude": 48.830116271972656, "longitude": 2.320364236831665, "name": "H\u00f4tel Montparnasse Al\u00e9sia (3 \u00e9toiles)", "type": 44}, {"category": 7, "distance": 376, "latitude": 48.827796936035156, "longitude": 2.315201759338379, "name": "Citadines Porte de Versailles Paris (3 \u00e9toiles)", "type": 46}], "summary": [{"count": 59, "type": 1}, {"count": 45, "type": 2}, {"count": 46, "type": 3}, {"count": 2, "type": 4}]}, "description": "Au coeur de village Didot, dans un immeuble ancien, nous vous proposons un ancien atelier d'artiste (Boutique d'Artisan peintre) de 2 pi\u00e8ces situ\u00e9 en rez-de-chauss\u00e9e. Ce bien calme et TRAVERSANT se compose d'une pi\u00e8ce principale, une cuisine am\u00e9nag\u00e9e, une chambre donnant sur une agr\u00e9able cour, salle de bains avec WC. Le bien dispose \u00e9galement d'une grande cave de 16m\u00b2 am\u00e9nageable. Id\u00e9alement situ\u00e9, \u00e0 proximit\u00e9 dans commerces et des transports. Votre agence L'Adresse DIDOT vous offre un projet ARCHIDECO - HOME STAGING VIRTUEL\u00ae r\u00e9alis\u00e9 par un architecte d'int\u00e9rieur (proposition d'am\u00e9nagement 3D non contractuelle). Copropri\u00e9t\u00e9 de 20 lots (Pas de proc\u00e9dure en cours). Charges annuelles: 1996.00 euros.", "energy": {"grade": "", "status": 1, "value": 0}, "features": [{"category": 1, "icon": 3, "label": "Cave"}, {"category": 2, "icon": 0, "label": "Surface de 37,49 m\u00b2"}, {"category": 2, "icon": 0, "label": "Ann\u00e9e de construction 1905"}, {"category": 2, "icon": 0, "label": "B\u00e2timent de 5 \u00e9tages"}, {"category": 2, "icon": 0, "label": "Au rez-de-chauss\u00e9e"}, {"category": 2, "icon": 0, "label": "2 Pi\u00e8ces"}, {"category": 2, "icon": 0, "label": "1 Chambre"}, {"category": 3, "icon": 0, "label": "1 Salle de bain"}, {"category": 3, "icon": 0, "label": "1 Salle d'eau"}, {"category": 3, "icon": 0, "label": "1 Toilette"}, {"category": 3, "icon": 0, "label": "Chauffage gaz"}, {"category": 3, "icon": 0, "label": "Cuisine coin cuisine"}, {"category": 3, "icon": 0, "label": "S\u00e9jour de 18 m\u00b2"}, {"category": 5, "icon": 0, "label": "Digicode"}, {"category": 5, "icon": 0, "label": "Calme"}], "greenhouseGas": {"grade": "", "status": 1, "value": 0}, "id": 143887947, "isExclusiveness": false, "isIndividual": false, "isSelection": false, "lastModified": "2019-05-28T04:38:00", "level": 3, "livingArea": 37.49, "livingAreaUnit": "m\u00b2", "photos": ["https://v.seloger.com/s/width/800/visuels/0/z/k/6/0zk6s5r8up91her1y3cperx8lf9raobspdcffb75s.jpg", "https://v.seloger.com/s/width/800/visuels/2/8/3/4/2834z0kr1vy0kr04ipgf306wed3vhsvemi7ulymm8.jpg", "https://v.seloger.com/s/width/800/visuels/1/1/d/3/11d39c6h4a4viv3q3unxr1l17q79qczhz9ysayakg.jpg", "https://v.seloger.com/s/width/800/visuels/1/s/6/v/1s6vh1a21mbzf483bhj9ix1gof1cheeorwnsvxwxs.jpg", "https://v.seloger.com/s/width/800/visuels/2/2/j/y/22jy8rzdyl3wmwlakdnvdl8l33wdpzucv9nhcb30g.jpg", "https://v.seloger.com/s/width/800/visuels/1/h/b/1/1hb1jylj0er1vi81y3h0xgy4upxidu7sb5flrpu68.jpg", "https://v.seloger.com/s/width/800/visuels/0/1/j/f/01jf4bopxl5iyyjnef7mgpkbw3aedk2dy0m45qlad.jpg", "https://v.seloger.com/s/width/800/visuels/0/z/y/m/0zymd0vc5lrwxybxsa0ah1ytmzmdy6ghs0ra70q9s.jpg"], "permalink": "https://www.seloger.com/annonces/achat/appartement/paris-14eme-75/didot-porte-de-vanves/143887947.htm?p=", "polygon": "POLYGON ((2.3179900000104676 48.829689999984119, 2.321729999966919 48.828269999998163, 2.3226400000276044 48.829299999983043, 2.3192900000140071 48.830509999999769, 2.3179900000104676 48.829689999984119))", "price": 318000.0, "priceAnnuity": 0.0, "priceDescription": "* Prix net, hors frais notari\u00e9s, d'enregistrement et de publicit\u00e9 fonci\u00e8re", "priceVariations": [], "priceUnit": "\u20ac", "professionals": [{"address": "71 rue Didot\n75014 Paris 14\u00e8me", "directoryId": 79301, "email": "contact-paris-didot@ladresse.com", "id": 106039, "latitude": 48.8299179, "level": 3, "longitude": 2.318344, "logoUrl": "https://v.seloger.com/s/width/106/logos/1/r/s/p/1rspf89ekyo1nkrf9ks7pafrl9l9kdq5e8hkxoflj.jpg", "name": "ADRESSE DIDOT IMMOBILIER", "phoneNumber": "01 45 41 10 10", "publicationId": 520886, "type": 1, "url": "https://www.seloger.com/professionnels/agences-immobilieres/paris-14eme-75/agency-79301.htm"}], "publicationId": 520886, "realtyType": 1, "reference": "OC322", "rooms": 2, "schools": [{"address": "", "city": "", "isAvailable": false, "latitude": 0.0, "longitude": 0.0, "name": "", "type": 4, "zipCode": ""}, {"address": "", "city": "", "isAvailable": false, "latitude": 0.0, "longitude": 0.0, "name": "", "type": 3, "zipCode": ""}, {"address": "", "city": "", "isAvailable": false, "latitude": 0.0, "longitude": 0.0, "name": "", "type": 2, "zipCode": ""}, {"address": "", "city": "", "isAvailable": false, "latitude": 0.0, "longitude": 0.0, "name": "", "type": 1, "zipCode": ""}], "title": "Appartement", "thirdPartyId": 159010, "transactionType": 2, "transportations": {"available": [{"count": 83, "lines": "28,38,58,62,68,88,91,95,125,126,128,187,188,194,197,295,297,513,ORLYBUS", "distance": 101, "latitude": 48.830528259277344, "longitude": 2.318835973739624, "name": "Alesia-Didot", "type": 1}, {"count": 32, "lines": "", "distance": 137, "latitude": 48.83088684082031, "longitude": 2.3188819885253906, "name": "V\u00e9lib' - Alesia Gergovie", "type": 11}, {"count": 5, "lines": "4,13", "distance": 457, "latitude": 48.8317985534668, "longitude": 2.314069986343384, "name": "Plaisance", "type": 3}, {"count": 3, "lines": "T3a", "distance": 559, "latitude": 48.8246955871582, "longitude": 2.318855047225952, "name": "Jean Moulin", "type": 5}, {"count": 1, "lines": "", "distance": 895, "latitude": 48.83740997314453, "longitude": 2.31587815284729, "name": "Paris-Vaugirard", "type": 2}], "nearest": {"count": 1, "lines": "", "distance": 81, "latitude": 48.82957077026367, "longitude": 2.3183529376983643, "name": "V\u00e9lib' - Jacquier", "type": 11}, "metadata": [{"color": "89c7d6", "name": "13", "type": 3}, {"color": "bb4d98", "name": "4", "type": 3}, {"color": "f68c59", "name": "T3a", "type": 5}]}, "zipCode": "75014"}