{"alur": {"price": 262000.0, "priceExcludingFees": 262000.0, "textTemplate": 2}, "bedrooms": 1, "city": "Paris 14\u00e8me", "comments": [], "condoAnnualCharges": 0.0, "condoProperties": 0, "coordinates": {"accuracy": 2, "latitude": 48.82386, "longitude": 2.32898}, "created": "2019-02-23T04:34:00", "dailyLife": {"categories": [{"category": 1, "distance": 147, "latitude": 48.82510757446289, "longitude": 2.3283019065856934, "name": "Ecole Primaire", "type": 32}, {"category": 1, "distance": 203, "latitude": 48.825050354003906, "longitude": 2.3268752098083496, "name": "Ecole Maternelle Sarrette", "type": 31}, {"category": 1, "distance": 387, "latitude": 48.825225830078125, "longitude": 2.3241119384765625, "name": "Section d'Enseignement Professionnel du Lyc\u00e9e Polyvalent Lucas de Nehou", "type": 34}, {"category": 1, "distance": 393, "latitude": 48.82524490356445, "longitude": 2.3240339756011963, "name": "Section d'Enseignement professionnel du lyc\u00e9e polyvalent Lucas de Nehou", "type": 30}, {"category": 2, "distance": 73, "latitude": 48.82429122924805, "longitude": 2.328211545944214, "name": "Arl Milone l'Amaretto ", "type": 19}, {"category": 2, "distance": 83, "latitude": 48.824462890625, "longitude": 2.328308582305908, "name": "Wong le Saint Laurent ", "type": 15}, {"category": 2, "distance": 101, "latitude": 48.82394027709961, "longitude": 2.327604055404663, "name": "Franprix Paris", "type": 21}, {"category": 2, "distance": 138, "latitude": 48.82291030883789, "longitude": 2.3277499675750732, "name": "Lidl", "type": 22}, {"category": 3, "distance": 138, "latitude": 48.82362365722656, "longitude": 2.3308427333831787, "name": "Orthop\u00e9die dento-faciale (Chirurgien-dentiste sp\u00e9cialiste en orthop\u00e9die dento-faciale)", "type": 41}, {"category": 3, "distance": 171, "latitude": 48.822601318359375, "longitude": 2.3276400566101074, "name": "Pharmacie", "type": 39}, {"category": 3, "distance": 217, "latitude": 48.82422637939453, "longitude": 2.3260610103607178, "name": "M\u00e9decin g\u00e9n\u00e9raliste", "type": 40}, {"category": 3, "distance": 298, "latitude": 48.82291030883789, "longitude": 2.332787036895752, "name": "Institut Mutualiste Montsouris", "type": 38}, {"category": 4, "distance": 973, "latitude": 48.81650161743164, "longitude": 2.3217999935150146, "name": "Montrouge", "type": 47}, {"category": 4, "distance": 1394, "latitude": 48.835880279541016, "longitude": 2.3236186504364014, "name": "Commissariat central de police de Paris 14e arrondissement", "type": 49}, {"category": 4, "distance": 2307, "latitude": 48.804229736328125, "longitude": 2.3391335010528564, "name": "Brigade territoriale autonome de gendarmerie de Petit-Bourg", "type": 51}, {"category": 5, "distance": 257, "latitude": 48.82188034057617, "longitude": 2.3308041095733643, "name": "Cit\u00e9 internationale universitaire : pavillon ou coll\u00e8ge n\u00e9erlandais (fondation Juliana)", "type": 36}, {"category": 5, "distance": 298, "latitude": 48.826332092285156, "longitude": 2.33056640625, "name": "Mus\u00e9e L\u00e9nine", "type": 79}, {"category": 5, "distance": 830, "latitude": 48.82001876831055, "longitude": 2.338693380355835, "name": "Th\u00e9\u00e2tre de la Cit\u00e9 internationale", "type": 37}, {"category": 5, "distance": 830, "latitude": 48.82001876831055, "longitude": 2.338693380355835, "name": "New Settings", "type": 80}, {"category": 6, "distance": 225, "latitude": 48.824188232421875, "longitude": 2.325939893722534, "name": "Centre Alesia 2", "type": 26}, {"category": 6, "distance": 250, "latitude": 48.82600021362305, "longitude": 2.330019950866699, "name": "Parc", "type": 27}, {"category": 6, "distance": 338, "latitude": 48.82484817504883, "longitude": 2.3246099948883057, "name": "Centre sportif Friant", "type": 72}, {"category": 6, "distance": 505, "latitude": 48.82828140258789, "longitude": 2.327385902404785, "name": "Gaumont Alesia", "type": 25}, {"category": 7, "distance": 85, "latitude": 48.82406234741211, "longitude": 2.330108880996704, "name": "H\u00f4tel Montsouris Orl\u00e9ans (1 \u00e9toile)", "type": 44}, {"category": 7, "distance": 1100, "latitude": 48.827796936035156, "longitude": 2.315201759338379, "name": "Citadines Porte de Versailles Paris (3 \u00e9toiles)", "type": 46}], "summary": [{"count": 31, "type": 1}, {"count": 25, "type": 2}, {"count": 25, "type": 3}, {"count": 1, "type": 4}]}, "description": "AU PIED DU M\u00c9TRO PORTE D'ORL\u00c9ANS / PROCHE AL\u00c9SIA Nous vous proposons cet appartement avec vue sur verdure, de type 2 pi\u00e8ces comprenant: une entr\u00e9e, un salon, une cuisine am\u00e9nag\u00e9e, une chambre, une salle d'eau et un WC. L'appartement est tr\u00e8s lumineux avec 3 fen\u00eatres. AU CALME TOTAL ET VUE SUR JARDIN A RAFRA\u00ceCHIR TOTALEMENT A VISITER SANS TROP TARDER.", "energy": {"grade": "", "status": 1, "value": 0}, "features": [{"category": 1, "icon": 11, "label": "Orientation Est, Ouest, Sud"}, {"category": 2, "icon": 0, "label": "Surface de 28,5 m\u00b2"}, {"category": 2, "icon": 0, "label": "B\u00e2timent de 4 \u00e9tages"}, {"category": 2, "icon": 0, "label": "Au 1er \u00e9tage"}, {"category": 2, "icon": 0, "label": "2 Pi\u00e8ces"}, {"category": 2, "icon": 0, "label": "1 Chambre"}, {"category": 3, "icon": 0, "label": "1 Salle d'eau"}, {"category": 3, "icon": 0, "label": "1 Toilette"}, {"category": 3, "icon": 0, "label": "Toilettes S\u00e9par\u00e9es"}, {"category": 3, "icon": 0, "label": "Cuisine aucune"}, {"category": 3, "icon": 0, "label": "Entr\u00e9e"}, {"category": 5, "icon": 0, "label": "Calme"}], "greenhouseGas": {"grade": "", "status": 1, "value": 0}, "id": 144371263, "isExclusiveness": false, "isIndividual": false, "isSelection": false, "lastModified": "2019-05-30T04:40:00", "level": 2, "livingArea": 28.5, "livingAreaUnit": "m\u00b2", "photos": ["https://v.seloger.com/s/cdn/x/visuels/2/8/n/s/28nssrqets45411hicn51yys12cowdp4e211jtak0.jpg", "https://v.seloger.com/s/cdn/x/visuels/0/y/4/8/0y480zt1kvnfuvlj0by244l35i76fdrww0sxg1h9s.jpg", "https://v.seloger.com/s/cdn/x/visuels/0/2/z/q/02zqy5tokjft6tigbokywngs56gbqe9dkdeamj5ps.jpg"], "permalink": "https://www.seloger.com/annonces/achat/appartement/paris-14eme-75/jean-moulin-porte-d-orleans/144371263.htm?p=", "polygon": "POLYGON ((2.3254200000083074 48.823167999973521, 2.3303199999500066 48.822129999985911, 2.3309700000099838 48.823949999990866, 2.3259199999738494 48.824670000001795, 2.3258800000185142 48.824450000014622, 2.3254200000083074 48.823167999973521))", "price": 262000.0, "priceAnnuity": 0.0, "priceDescription": "* Prix net, hors frais notari\u00e9s, d'enregistrement et de publicit\u00e9 fonci\u00e8re", "priceVariations": [], "priceUnit": "\u20ac", "professionals": [{"address": "88 AVENUE LEDRU ROLLIN  75012   PARIS 12EME", "directoryId": 95558, "email": "service.transaction@immobilierbc.fr", "id": 118397, "latitude": 48.8504639, "level": 2, "longitude": 2.375429, "logoUrl": "https://v.seloger.com/s/height/75/logos/0/u/6/u/0u6u7lhozrielq5roldugrqj1vttownmdcsp17vn3.jpg", "name": "IMMOBILIER BC", "phoneNumber": "01 43 46 02 02", "publicationId": 569077, "type": 1, "url": "https://www.seloger.com/professionnels/agences-immobilieres/paris-12eme-75/agency-95558.htm"}], "publicationId": 569077, "realtyType": 1, "reference": "341", "rooms": 2, "schools": [{"address": "", "city": "", "isAvailable": false, "latitude": 0.0, "longitude": 0.0, "name": "", "type": 4, "zipCode": ""}, {"address": "", "city": "", "isAvailable": false, "latitude": 0.0, "longitude": 0.0, "name": "", "type": 3, "zipCode": ""}, {"address": "", "city": "", "isAvailable": false, "latitude": 0.0, "longitude": 0.0, "name": "", "type": 2, "zipCode": ""}, {"address": "", "city": "", "isAvailable": false, "latitude": 0.0, "longitude": 0.0, "name": "", "type": 1, "zipCode": ""}], "title": "Appartement", "thirdPartyId": 172363, "transactionType": 2, "transportations": {"available": [{"count": 90, "lines": "21,28,38,58,62,68,88,125,126,128,187,188,194,197,216,295,297,299,513,MONTBUS,ORLYBUS", "distance": 136, "latitude": 48.82506561279297, "longitude": 2.3286383152008057, "name": "Prisse d'Avennes", "type": 1}, {"count": 26, "lines": "", "distance": 187, "latitude": 48.82234191894531, "longitude": 2.3278615474700928, "name": "V\u00e9lib' - Jourdan le Brix Et Mesnin", "type": 11}, {"count": 4, "lines": "T3a", "distance": 229, "latitude": 48.82304000854492, "longitude": 2.326112985610962, "name": "Porte d'Orl\u00e9ans", "type": 5}, {"count": 4, "lines": "4", "distance": 244, "latitude": 48.823699951171875, "longitude": 2.3256499767303467, "name": "Porte d'Orl\u00e9ans - G\u00e9n\u00e9ral Leclerc", "type": 3}, {"count": 1, "lines": "B", "distance": 820, "latitude": 48.82067108154297, "longitude": 2.339078903198242, "name": "Cit\u00e9 Universitaire", "type": 14}], "nearest": {"count": 1, "lines": "513", "distance": 63, "latitude": 48.82395935058594, "longitude": 2.3281214237213135, "name": "Paul Fort", "type": 1}, "metadata": [{"color": "f68c59", "name": "T3a", "type": 5}, {"color": "bb4d98", "name": "4", "type": 3}, {"color": "427dbd", "name": "B", "type": 14}]}, "zipCode": "75014"}