{"alur": {"price": 310000.0, "priceExcludingFees": 310000.0, "textTemplate": 2}, "bedrooms": 1, "city": "Paris 14\u00e8me", "comments": [], "condoAnnualCharges": 1148.0, "condoProperties": 20, "coordinates": {"accuracy": 2, "latitude": 48.829, "longitude": 2.32637}, "created": "2019-05-27T19:06:00", "dailyLife": {"categories": [{"category": 1, "distance": 46, "latitude": 48.8291015625, "longitude": 2.3257598876953125, "name": "Du Petit Montrouge", "type": 43}, {"category": 1, "distance": 52, "latitude": 48.8292236328125, "longitude": 2.3257460594177246, "name": "Espace Pl\u00e9iade", "type": 33}, {"category": 1, "distance": 104, "latitude": 48.82809829711914, "longitude": 2.325965404510498, "name": "Coll\u00e8ge Alphonse Daudet", "type": 30}, {"category": 1, "distance": 334, "latitude": 48.82725524902344, "longitude": 2.3226442337036133, "name": "Ecole Primaire", "type": 32}, {"category": 2, "distance": 73, "latitude": 48.828338623046875, "longitude": 2.326413631439209, "name": "Corefi Gasparino ", "type": 19}, {"category": 2, "distance": 86, "latitude": 48.828224182128906, "longitude": 2.3264827728271484, "name": "Kiosque de presse", "type": 24}, {"category": 2, "distance": 108, "latitude": 48.82856369018555, "longitude": 2.3276915550231934, "name": "Monop' Leclerc", "type": 22}, {"category": 2, "distance": 127, "latitude": 48.828330993652344, "longitude": 2.3249564170837402, "name": "LCL", "type": 23}, {"category": 3, "distance": 36, "latitude": 48.82867431640625, "longitude": 2.326280117034912, "name": "M\u00e9decin g\u00e9n\u00e9raliste", "type": 40}, {"category": 3, "distance": 56, "latitude": 48.829490661621094, "longitude": 2.3261878490448, "name": "Gastro-ent\u00e9rologue et h\u00e9patologue", "type": 41}, {"category": 3, "distance": 122, "latitude": 48.830101013183594, "longitude": 2.3263700008392334, "name": "Pharmacie", "type": 39}, {"category": 3, "distance": 824, "latitude": 48.82291030883789, "longitude": 2.332787036895752, "name": "Institut Mutualiste Montsouris", "type": 38}, {"category": 4, "distance": 436, "latitude": 48.83292007446289, "longitude": 2.3266406059265137, "name": "Mairie du 14e arrondissement de Paris", "type": 47}, {"category": 4, "distance": 791, "latitude": 48.835880279541016, "longitude": 2.3236186504364014, "name": "Commissariat central de police de Paris 14e arrondissement", "type": 49}, {"category": 4, "distance": 2910, "latitude": 48.804229736328125, "longitude": 2.3391335010528564, "name": "Brigade territoriale autonome de gendarmerie de Petit-Bourg", "type": 51}, {"category": 5, "distance": 98, "latitude": 48.828773498535156, "longitude": 2.3276710510253906, "name": "Eglise Saint-Pierre de Montrouge", "type": 36}, {"category": 5, "distance": 427, "latitude": 48.826332092285156, "longitude": 2.33056640625, "name": "Mus\u00e9e L\u00e9nine", "type": 79}, {"category": 5, "distance": 449, "latitude": 48.83302307128906, "longitude": 2.3268887996673584, "name": "Festival Jazz \u00e0 la Cit\u00e9 - Duo Denzler - Gerbal", "type": 80}, {"category": 5, "distance": 1170, "latitude": 48.83930969238281, "longitude": 2.323208808898926, "name": "Th\u00e9\u00e2tre de la Ga\u00eet\u00e9 Montparnasse", "type": 37}, {"category": 6, "distance": 50, "latitude": 48.82920837402344, "longitude": 2.3257598876953125, "name": "L'Oeuvre d'Education Populaire et Familiale", "type": 26}, {"category": 6, "distance": 109, "latitude": 48.82828140258789, "longitude": 2.327385902404785, "name": "Gaumont Alesia", "type": 25}, {"category": 6, "distance": 405, "latitude": 48.83258819580078, "longitude": 2.327310085296631, "name": "Piscine Municipale Aspirant Dunand", "type": 71}, {"category": 6, "distance": 427, "latitude": 48.82600021362305, "longitude": 2.330019950866699, "name": "Parc", "type": 27}, {"category": 7, "distance": 270, "latitude": 48.8303108215332, "longitude": 2.3232531547546387, "name": "Hotel All Seasons (3 \u00e9toiles)", "type": 44}, {"category": 7, "distance": 829, "latitude": 48.827796936035156, "longitude": 2.315201759338379, "name": "Citadines Porte de Versailles Paris (3 \u00e9toiles)", "type": 46}], "summary": [{"count": 43, "type": 1}, {"count": 37, "type": 2}, {"count": 41, "type": 3}, {"count": 2, "type": 4}]}, "description": "RUE REMY DUMONCEL\nPetit immeuble parisien bien entretenu, FONCIA vous propose en EXCLUSIVIT\u00c9 un appartement de 30m\u00b2 loi carrez \u00e0 usage mixte (profession lib\u00e9rale possible) au rez-de-chauss\u00e9e traversant sur rue et charmante cour arbor\u00e9e.\nRefait \u00e0 neuf avec des mat\u00e9riaux de qualit\u00e9.\nPr\u00e9voir la cr\u00e9ation d'une salle d'eau.\nCave saine en sous-sol\nContact: Mehdi BATTI.", "energy": {"grade": "G", "status": 0, "value": 460}, "features": [{"category": 1, "icon": 3, "label": "Cave"}, {"category": 2, "icon": 0, "label": "Surface de 30,4 m\u00b2"}, {"category": 2, "icon": 0, "label": "Ann\u00e9e de construction 1880"}, {"category": 2, "icon": 0, "label": "B\u00e2timent de 5 \u00e9tages"}, {"category": 2, "icon": 0, "label": "Au rez-de-chauss\u00e9e"}, {"category": 2, "icon": 0, "label": "Adapt\u00e9 Pmr"}, {"category": 2, "icon": 0, "label": "2 Pi\u00e8ces"}, {"category": 2, "icon": 0, "label": "1 Chambre"}, {"category": 3, "icon": 0, "label": "1 Salle d'eau"}, {"category": 3, "icon": 0, "label": "1 Toilette"}, {"category": 3, "icon": 0, "label": "Chauffage individuel gaz"}, {"category": 5, "icon": 0, "label": "Digicode"}], "greenhouseGas": {"grade": "G", "status": 0, "value": 107}, "id": 147604211, "isExclusiveness": true, "isIndividual": false, "isSelection": false, "lastModified": "2019-05-29T18:18:00", "level": 1, "livingArea": 30.4, "livingAreaUnit": "m\u00b2", "photos": ["https://v.seloger.com/s/cdn/x/visuels/1/p/v/y/1pvyrd829rf8ey0qo6lu7tkmegsgoaj6ut9st5ncw.jpg", "https://v.seloger.com/s/cdn/x/visuels/2/2/g/f/22gfv3wvamtk4sjw7dvcgdateknu6dpiz3l17mc8w.jpg", "https://v.seloger.com/s/cdn/x/visuels/1/z/3/9/1z39jt0hzcnpv0ceuj4kzxsg43n3d78ji0m77cadc.jpg", "https://v.seloger.com/s/cdn/x/visuels/0/f/h/a/0fhaigrxto8yiwuiefg6h61cf16ab27g2f6xhfiww.jpg", "https://v.seloger.com/s/cdn/x/visuels/2/3/6/o/236od6tstryt353vyqo7oby1gruwhqnd9vjpg9tog.jpg", "https://v.seloger.com/s/cdn/x/visuels/0/q/q/k/0qqkoe4rt4s8uteoaq3v9v9mmdhdc4w6k9bq28neo.jpg", "https://v.seloger.com/s/cdn/x/visuels/1/o/k/v/1okv3kmxoj4w8341adoqeuvlno08v5uatwdky47sw.jpg", "https://v.seloger.com/s/cdn/x/visuels/0/u/i/x/0uixqu10mepw86wrhwuq1tee411s0m22o91ny6fls.jpg", "https://v.seloger.com/s/cdn/x/visuels/1/s/7/k/1s7ksn2sk47m8bivd8adm8zfjcahzh2w8vxbhsqkg.jpg", "https://v.seloger.com/s/cdn/x/visuels/2/a/d/8/2ad82jj6nfvqcba1gyau3b4r7s91i6gps6kpz34w0.jpg"], "permalink": "https://www.seloger.com/annonces/achat/appartement/paris-14eme-75/pernety/147604211.htm?p=", "polygon": "POLYGON ((2.3226400000276048 48.829299999983043, 2.3265299999620774 48.827889999956824, 2.3268399999942626 48.828059999970719, 2.3252700000302871 48.831789999967441, 2.3249589999904856 48.832611000048928, 2.3246900000376631 48.832000999944277, 2.3239899999462068 48.830990000045851, 2.3226400000276048 48.829299999983043))", "price": 310000.0, "priceAnnuity": 0.0, "priceDescription": "* Prix net, hors frais notari\u00e9s, d'enregistrement et de publicit\u00e9 fonci\u00e8re", "priceVariations": [], "priceUnit": "\u20ac", "professionals": [{"address": "36 RUE DES PLANTES\n75014 PARIS", "directoryId": 78235, "email": "ftl-paris14p@foncia.fr", "id": 104947, "latitude": 48.8298035, "level": 1, "longitude": 2.323009, "logoUrl": "https://v.seloger.com/s/width/82/logos/1/p/6/j/1p6jwejuifflpdmvu51a19p0nfmigl7y69iauu002.jpg", "name": "Foncia Transaction Paris Plantes", "phoneNumber": "06 68 16 72 10", "publicationId": 516941, "type": 1, "url": "https://www.seloger.com/professionnels/agences-immobilieres/paris-75/agency-78235.htm"}], "publicationId": 516941, "realtyType": 1, "reference": "1328138", "rooms": 2, "schools": [{"address": "", "city": "", "isAvailable": false, "latitude": 0.0, "longitude": 0.0, "name": "", "type": 4, "zipCode": ""}, {"address": "75 rue d'Al\u00e9sia", "city": "Paris", "isAvailable": true, "latitude": 48.82784, "longitude": 2.32842183, "name": "Coll\u00e8ge Jean Moulin", "type": 3, "zipCode": "75014"}, {"address": "12 Rue d'Alesia", "city": "Paris", "isAvailable": true, "latitude": 48.82774, "longitude": 2.33338284, "name": "Ecole Primaire", "type": 2, "zipCode": "75014"}, {"address": "34 Rue Sarrette", "city": "Paris", "isAvailable": true, "latitude": 48.826004, "longitude": 2.32840466, "name": "Ecole Maternelle Sarrette", "type": 1, "zipCode": "75014"}], "title": "Appartement", "thirdPartyId": 157594, "transactionType": 2, "transportations": {"available": [{"count": 97, "lines": "28,38,58,62,68,88,125,126,128,187,188,194,197,216,295,297,299,513,ORLYBUS", "distance": 71, "latitude": 48.82835388183594, "longitude": 2.3263373374938965, "name": "Alesia-Maine", "type": 1}, {"count": 7, "lines": "4,6,13", "distance": 107, "latitude": 48.82809829711914, "longitude": 2.3269100189208984, "name": "Al\u00e9sia", "type": 3}, {"count": 33, "lines": "", "distance": 180, "latitude": 48.82742691040039, "longitude": 2.3257603645324707, "name": "V\u00e9lib' - Jean Moulin Alesia", "type": 11}, {"count": 3, "lines": "T3a", "distance": 663, "latitude": 48.82304000854492, "longitude": 2.326112985610962, "name": "Porte d'Orl\u00e9ans", "type": 5}, {"count": 1, "lines": "B", "distance": 671, "latitude": 48.833045959472656, "longitude": 2.3331611156463623, "name": "Denfert-Rochereau", "type": 14}], "nearest": {"count": 1, "lines": "28", "distance": 55, "latitude": 48.82852554321289, "longitude": 2.326582193374634, "name": "Alesia-Maine", "type": 1}, "metadata": [{"color": "bb4d98", "name": "4", "type": 3}, {"color": "79bb92", "name": "6", "type": 3}, {"color": "89c7d6", "name": "13", "type": 3}, {"color": "f68c59", "name": "T3a", "type": 5}, {"color": "427dbd", "name": "B", "type": 14}]}, "zipCode": "75014"}